{
  "type": "FeatureCollection",
  "generator": "overpass-ide",
  "copyright": "The data included in this document is from www.openstreetmap.org. The data is made available under ODbL.",
  "timestamp": "2022-07-04T07:17:22Z",
  "features": [
    {
      "type": "Feature",
      "properties": {
        "@id": "node/32464234",
        "amenity": "casino",
        "name": "Casino Baden-Baden",
        "wheelchair": "yes",
        "wikidata": "Q1047567",
        "wikipedia": "de:Casino Baden-Baden"
      },
      "geometry": {
        "type": "Point",
        "coordinates": [
          8.2363657,
          48.7606207
        ]
      },
      "id": "node/32464234"
    },
    {
      "type": "Feature",
      "properties": {
        "@id": "node/34051012",
        "addr:city": "Rotterdam",
        "addr:housenumber": "624",
        "addr:postcode": "3012CN",
        "addr:street": "Weena",
        "amenity": "casino",
        "brand": "Holland Casino",
        "brand:wikidata": "Q361554",
        "brand:wikipedia": "nl:Holland Casino",
        "name": "Holland Casino"
      },
      "geometry": {
        "type": "Point",
        "coordinates": [
          4.4724791,
          51.9229577
        ]
      },
      "id": "node/34051012"
    },
    {
      "type": "Feature",
      "properties": {
        "@id": "node/207358602",
        "amenity": "casino",
        "name": "Casino Monte Laa"
      },
      "geometry": {
        "type": "Point",
        "coordinates": [
          16.4014105,
          48.165714
        ]
      },
      "id": "node/207358602"
    },
    {
      "type": "Feature",
      "properties": {
        "@id": "node/255053336",
        "addr:city": "Pasay",
        "addr:housename": "The Heritage Hotel",
        "addr:street": "Roxas Boulevard",
        "amenity": "casino",
        "name": "PAGCOR Heritage Casino",
        "operator": "PAGCOR"
      },
      "geometry": {
        "type": "Point",
        "coordinates": [
          120.9932473,
          14.5367095
        ]
      },
      "id": "node/255053336"
    },
    {
      "type": "Feature",
      "properties": {
        "@id": "node/264496514",
        "amenity": "casino",
        "check_date:opening_hours": "2022-06-05",
        "email": "info@spielbankensachsen.de",
        "fax": "+49 341 8670-804",
        "level": "1",
        "name": "Spielbank Leipzig",
        "opening_hours": "Mo-Su 13:00-02:00; Fr,Sa 13:00-03:00; PH off",
        "operator": "Sächsische Spielbanken-GmbH & Co. KG",
        "phone": "+49 341 8670-0",
        "website": "https://www.spielbankensachsen.de/",
        "wheelchair": "yes"
      },
      "geometry": {
        "type": "Point",
        "coordinates": [
          12.373876,
          51.3376668
        ]
      },
      "id": "node/264496514"
    },
    {
      "type": "Feature",
      "properties": {
        "@id": "node/273724398",
        "amenity": "casino",
        "name": "Rebuy Stars Casino",
        "opening_hours": "24/7"
      },
      "geometry": {
        "type": "Point",
        "coordinates": [
          13.3682819,
          49.7757844
        ]
      },
      "id": "node/273724398"
    },
    {
      "type": "Feature",
      "properties": {
        "@id": "node/276518955",
        "amenity": "casino",
        "gambling": "casino",
        "name": "Las Vegas Casino Tropicana",
        "opening_hours": "24/7",
        "opening_hours:covid19": "24/7",
        "operator": "Las Vegas Casino Kft.",
        "smoking": "outside"
      },
      "geometry": {
        "type": "Point",
        "coordinates": [
          19.049256,
          47.4963924
        ]
      },
      "id": "node/276518955"
    },
    {
      "type": "Feature",
      "properties": {
        "@id": "node/276848691",
        "amenity": "casino",
        "name": "Casino Ruhl",
        "operator": "Groupe Barrière",
        "source": "survey 2017",
        "website": "http://www.lucienbarriere.com/fr/Casino/Nice/accueil.html"
      },
      "geometry": {
        "type": "Point",
        "coordinates": [
          7.2657642,
          43.6951736
        ]
      },
      "id": "node/276848691"
    },
    {
      "type": "Feature",
      "properties": {
        "@id": "node/276848819",
        "amenity": "casino",
        "name": "Palais de la Méditerranée",
        "opening_hours": "PH,Mo-Su 09:00-23:00",
        "operator": "Groupe Partouche",
        "wheelchair": "yes"
      },
      "geometry": {
        "type": "Point",
        "coordinates": [
          7.2630274,
          43.6950623
        ]
      },
      "id": "node/276848819"
    },
    {
      "type": "Feature",
      "properties": {
        "@id": "node/278980513",
        "amenity": "casino"
      },
      "geometry": {
        "type": "Point",
        "coordinates": [
          14.9867796,
          51.1529103
        ]
      },
      "id": "node/278980513"
    },
    {
      "type": "Feature",
      "properties": {
        "@id": "node/279336236",
        "amenity": "casino",
        "name": "Spielbank Wiesbaden",
        "note": "Casino",
        "toilets:wheelchair": "yes",
        "tourism": "attraction",
        "website": "https://www.spielbank-wiesbaden.de/",
        "wheelchair": "yes",
        "wikidata": "Q882865",
        "wikipedia": "de:Spielbank Wiesbaden"
      },
      "geometry": {
        "type": "Point",
        "coordinates": [
          8.2478087,
          50.0850604
        ]
      },
      "id": "node/279336236"
    },
    {
      "type": "Feature",
      "properties": {
        "@id": "node/280861883",
        "addr:city": "Linz",
        "addr:country": "AT",
        "addr:housenumber": "2-4",
        "addr:postcode": "4020",
        "addr:street": "Rainerstraße",
        "amenity": "casino",
        "contact:email": "linz@casinos.at",
        "contact:fax": "+43 732 65448717222",
        "contact:phone": "+43 732 6544870",
        "contact:website": "http://www.casinos.at",
        "name": "Casino Linz",
        "operator": "Casinos Austria AG"
      },
      "geometry": {
        "type": "Point",
        "coordinates": [
          14.290712,
          48.2983644
        ]
      },
      "id": "node/280861883"
    },
    {
      "type": "Feature",
      "properties": {
        "@id": "node/285941748",
        "amenity": "casino",
        "name": "Spielothek"
      },
      "geometry": {
        "type": "Point",
        "coordinates": [
          9.2456546,
          51.9561428
        ]
      },
      "id": "node/285941748"
    },
    {
      "type": "Feature",
      "properties": {
        "@id": "node/287421449",
        "addr:housenumber": "3",
        "addr:street": "Bulevardul Tudor Vladimirescu",
        "amenity": "casino",
        "atm": "yes",
        "name": "Las Vegas",
        "smoking": "outside"
      },
      "geometry": {
        "type": "Point",
        "coordinates": [
          27.5948685,
          47.1668477
        ]
      },
      "id": "node/287421449"
    },
    {
      "type": "Feature",
      "properties": {
        "@id": "node/290570639",
        "addr:city": "Lelystad",
        "addr:housenumber": "28",
        "addr:postcode": "8232LK",
        "addr:street": "Tjalk 15",
        "amenity": "casino",
        "name": "Fair Play Centers",
        "source": "BAG",
        "source:date": "2014-06-19"
      },
      "geometry": {
        "type": "Point",
        "coordinates": [
          5.4715308,
          52.5004545
        ]
      },
      "id": "node/290570639"
    },
    {
      "type": "Feature",
      "properties": {
        "@id": "node/291746700",
        "addr:city": "München",
        "addr:country": "DE",
        "addr:housenumber": "2a",
        "addr:postcode": "80687",
        "addr:street": "Lautensackstraße",
        "amenity": "casino",
        "contact:phone": "+49 89 60036617",
        "name": "shop n' go",
        "opening_hours": "Mo-Fr 11:00-20:00; Sa 10:00-20:00",
        "operator": "Tipico"
      },
      "geometry": {
        "type": "Point",
        "coordinates": [
          11.5179552,
          48.1396767
        ]
      },
      "id": "node/291746700"
    },
    {
      "type": "Feature",
      "properties": {
        "@id": "node/301953814",
        "addr:city": "Maspalomas",
        "addr:country": "ES",
        "addr:housenumber": "1",
        "addr:postcode": "35100",
        "addr:street": "Avenida Mar Mediterraneo",
        "amenity": "casino",
        "name": "Gran Casino Costa Meloneras S.A.",
        "phone": "+34 928143909"
      },
      "geometry": {
        "type": "Point",
        "coordinates": [
          -15.6006573,
          27.7388661
        ]
      },
      "id": "node/301953814"
    },
    {
      "type": "Feature",
      "properties": {
        "@id": "node/305687162",
        "addr:city": "Минск",
        "addr:city:ru": "Минск",
        "addr:country": "BY",
        "addr:housenumber": "1",
        "addr:street": "улица Руссиянова",
        "amenity": "casino",
        "contact:email": "inform@by.maxbetgroup.com",
        "contact:facebook": "https://www.facebook.com/Maxbet.belarus/",
        "contact:instagram": "https://www.instagram.com/maxbet_by/",
        "contact:phone": "+375 44 7727362",
        "contact:vk": "https://vk.com/maxbet_by",
        "contact:website": "https://maxbet.by/",
        "leisure": "escape_game",
        "name": "Maxbet",
        "name:be": "Maxbet",
        "name:ru": "Winbet",
        "opening_hours": "24/7",
        "operator": "Максбет-М",
        "telegram": "https://t.me/maxbet_by"
      },
      "geometry": {
        "type": "Point",
        "coordinates": [
          27.6843504,
          53.9417711
        ]
      },
      "id": "node/305687162"
    },
    {
      "type": "Feature",
      "properties": {
        "@id": "node/307874710",
        "addr:postcode": "M3 4LP",
        "addr:street": "Watson Street",
        "amenity": "casino",
        "internet_access": "wlan",
        "name": "Manchester 235",
        "opening_hours": "24/7"
      },
      "geometry": {
        "type": "Point",
        "coordinates": [
          -2.2487394,
          53.4770753
        ]
      },
      "id": "node/307874710"
    },
    {
      "type": "Feature",
      "properties": {
        "@id": "node/308729087",
        "addr:barangay": "Sasa",
        "addr:city": "Davao City",
        "addr:district": "Buhangin District",
        "addr:housename": "Grand Regal Hotel",
        "addr:postcode": "8000",
        "addr:province": "Davao del Sur",
        "addr:street": "J. P. Laurel Avenue",
        "amenity": "casino",
        "min_age": "21",
        "name": "Casino Filipino"
      },
      "geometry": {
        "type": "Point",
        "coordinates": [
          125.6415913,
          7.1036738
        ]
      },
      "id": "node/308729087"
    },
    {
      "type": "Feature",
      "properties": {
        "@id": "node/311995295",
        "amenity": "casino",
        "created_by": "JOSM",
        "name": "Gala Casino"
      },
      "geometry": {
        "type": "Point",
        "coordinates": [
          -0.3368948,
          53.7455613
        ]
      },
      "id": "node/311995295"
    },
    {
      "type": "Feature",
      "properties": {
        "@id": "node/312461284",
        "amenity": "casino",
        "name": "Starcasino.be"
      },
      "geometry": {
        "type": "Point",
        "coordinates": [
          4.4766512,
          50.8721301
        ]
      },
      "id": "node/312461284"
    },
    {
      "type": "Feature",
      "properties": {
        "@id": "node/312547654",
        "amenity": "casino",
        "name": "Salón Recreativo América"
      },
      "geometry": {
        "type": "Point",
        "coordinates": [
          -16.7308957,
          28.0620718
        ]
      },
      "id": "node/312547654"
    },
    {
      "type": "Feature",
      "properties": {
        "@id": "node/313203127",
        "amenity": "casino",
        "name": "Grosvenor G Casino",
        "source": "survey"
      },
      "geometry": {
        "type": "Point",
        "coordinates": [
          -1.9013316,
          52.4775279
        ]
      },
      "id": "node/313203127"
    },
    {
      "type": "Feature",
      "properties": {
        "@id": "node/314749704",
        "amenity": "casino",
        "name": "Grosvenor Casino",
        "source": "survey"
      },
      "geometry": {
        "type": "Point",
        "coordinates": [
          -1.9148317,
          52.4747145
        ]
      },
      "id": "node/314749704"
    },
    {
      "type": "Feature",
      "properties": {
        "@id": "node/320345038",
        "amenity": "casino",
        "name": "Spieloase"
      },
      "geometry": {
        "type": "Point",
        "coordinates": [
          13.0552069,
          51.9962368
        ]
      },
      "id": "node/320345038"
    },
    {
      "type": "Feature",
      "properties": {
        "@id": "node/322177270",
        "addr:city": "Neuenbürg",
        "addr:country": "DE",
        "addr:housenumber": "9",
        "addr:postcode": "75305",
        "addr:street": "Schlößlesstraße",
        "amenity": "casino",
        "email": "info@spielcenter-joy.de",
        "name": "Spielcenter Joy",
        "phone": "+49 7082 9496381",
        "website": "http://www.spielcenter-joy.de/"
      },
      "geometry": {
        "type": "Point",
        "coordinates": [
          8.5977161,
          48.8444194
        ]
      },
      "id": "node/322177270"
    },
    {
      "type": "Feature",
      "properties": {
        "@id": "node/325120770",
        "amenity": "casino",
        "name": "Casino Olympic",
        "source": "survey",
        "wheelchair": "yes"
      },
      "geometry": {
        "type": "Point",
        "coordinates": [
          25.2764431,
          54.687853
        ]
      },
      "id": "node/325120770"
    },
    {
      "type": "Feature",
      "properties": {
        "@id": "node/325120963",
        "amenity": "casino",
        "name": "Grand Casino",
        "source": "survey"
      },
      "geometry": {
        "type": "Point",
        "coordinates": [
          25.2766359,
          54.6881786
        ]
      },
      "id": "node/325120963"
    },
    {
      "type": "Feature",
      "properties": {
        "@id": "node/326095244",
        "amenity": "casino",
        "name": "Europlay",
        "opening_hours": "Mo-Su 00:00-01:00,07:00-24:00"
      },
      "geometry": {
        "type": "Point",
        "coordinates": [
          9.7048039,
          53.5815347
        ]
      },
      "id": "node/326095244"
    },
    {
      "type": "Feature",
      "properties": {
        "@id": "node/331264660",
        "addr:street": "Boulevard Édouard Baudouin",
        "amenity": "casino",
        "name": "Casino Eden",
        "phone": "+33 4 92 93 71 71",
        "website": "http://www.casinojuanlespins.com"
      },
      "geometry": {
        "type": "Point",
        "coordinates": [
          7.1132115,
          43.5674718
        ]
      },
      "id": "node/331264660"
    },
    {
      "type": "Feature",
      "properties": {
        "@id": "node/336482184",
        "addr:city": "Steinfeld",
        "addr:country": "DE",
        "addr:housenumber": "2C",
        "addr:postcode": "49439",
        "addr:street": "Lohner Straße",
        "amenity": "casino",
        "name": "No Limits"
      },
      "geometry": {
        "type": "Point",
        "coordinates": [
          8.2177711,
          52.5928942
        ]
      },
      "id": "node/336482184"
    },
    {
      "type": "Feature",
      "properties": {
        "@id": "node/348407539",
        "amenity": "casino",
        "name": "Vegas"
      },
      "geometry": {
        "type": "Point",
        "coordinates": [
          -0.1064426,
          51.5323079
        ]
      },
      "id": "node/348407539"
    },
    {
      "type": "Feature",
      "properties": {
        "@id": "node/350843935",
        "amenity": "casino",
        "name": "Gran Casino De Ceuta"
      },
      "geometry": {
        "type": "Point",
        "coordinates": [
          -5.3103387,
          35.8891699
        ]
      },
      "id": "node/350843935"
    },
    {
      "type": "Feature",
      "properties": {
        "@id": "node/358336513",
        "addr:city": "Seelze",
        "addr:country": "DE",
        "addr:housenumber": "26",
        "addr:postcode": "30926",
        "addr:street": "Lange-Feld-Straße",
        "amenity": "casino",
        "level": "1",
        "name": "Joker Plus Automaten GmbH"
      },
      "geometry": {
        "type": "Point",
        "coordinates": [
          9.6396126,
          52.3970262
        ]
      },
      "id": "node/358336513"
    },
    {
      "type": "Feature",
      "properties": {
        "@id": "node/369347745",
        "amenity": "casino",
        "name": "Lagoonda Casino"
      },
      "geometry": {
        "type": "Point",
        "coordinates": [
          -13.2943512,
          8.4961468
        ]
      },
      "id": "node/369347745"
    },
    {
      "type": "Feature",
      "properties": {
        "@id": "node/369980095",
        "amenity": "casino",
        "description": "Casino"
      },
      "geometry": {
        "type": "Point",
        "coordinates": [
          7.47284,
          43.7584899
        ]
      },
      "id": "node/369980095"
    },
    {
      "type": "Feature",
      "properties": {
        "@id": "node/392049145",
        "amenity": "casino",
        "leisure": "adult_gaming_centre",
        "name": "Spielsalon Playing"
      },
      "geometry": {
        "type": "Point",
        "coordinates": [
          10.1603792,
          49.7364205
        ]
      },
      "id": "node/392049145"
    },
    {
      "type": "Feature",
      "properties": {
        "@id": "node/395277636",
        "amenity": "casino",
        "name": "Spielcafé",
        "website": "http://www.world-of-video.de/Videothek/index/id/477/World_of_Video_-_Knud-Rasmussen-Str.10_-_18106_-_Rostock-Evershagen.html"
      },
      "geometry": {
        "type": "Point",
        "coordinates": [
          12.0609618,
          54.123552
        ]
      },
      "id": "node/395277636"
    },
    {
      "type": "Feature",
      "properties": {
        "@id": "node/409022488",
        "addr:city": "Buffalo",
        "addr:housenumber": "1",
        "addr:postcode": "14204",
        "addr:state": "NY",
        "addr:street": "Fulton Street",
        "amenity": "casino",
        "building": "yes",
        "name": "Seneca Buffalo Creek Casino",
        "opening_hours": "24/7",
        "operator": "Seneca Nation of Indians"
      },
      "geometry": {
        "type": "Point",
        "coordinates": [
          -78.8702702,
          42.873853
        ]
      },
      "id": "node/409022488"
    },
    {
      "type": "Feature",
      "properties": {
        "@id": "node/409551611",
        "addr:city": "Passau",
        "addr:housenumber": "102",
        "addr:postcode": "94032",
        "addr:street": "Spitalhofstraße",
        "amenity": "casino",
        "name": "Casino Novolino",
        "operator": "Extra Games Entertainment GmbH"
      },
      "geometry": {
        "type": "Point",
        "coordinates": [
          13.4212401,
          48.5707348
        ]
      },
      "id": "node/409551611"
    },
    {
      "type": "Feature",
      "properties": {
        "@id": "node/411516108",
        "amenity": "casino",
        "name": "Alpen-Palast",
        "website": "https://www.alpencasino.com"
      },
      "geometry": {
        "type": "Point",
        "coordinates": [
          13.4277629,
          48.569973
        ]
      },
      "id": "node/411516108"
    },
    {
      "type": "Feature",
      "properties": {
        "@id": "node/415981775",
        "amenity": "casino",
        "name": "Casino Cosmopol",
        "opening_hours": "\"closed\"",
        "payment:cash": "yes",
        "phone": "+4687818800",
        "website": "https://www.casinocosmopol.se/",
        "wheelchair": "yes",
        "wikidata": "Q10443522",
        "wikipedia": "sv:Casino Cosmopol, Stockholm"
      },
      "geometry": {
        "type": "Point",
        "coordinates": [
          18.0554864,
          59.3333288
        ]
      },
      "id": "node/415981775"
    },
    {
      "type": "Feature",
      "properties": {
        "@id": "node/416366968",
        "amenity": "casino",
        "name": "Spielothek Dudweiler"
      },
      "geometry": {
        "type": "Point",
        "coordinates": [
          7.038361,
          49.2788614
        ]
      },
      "id": "node/416366968"
    },
    {
      "type": "Feature",
      "properties": {
        "@id": "node/421635503",
        "amenity": "casino",
        "man_made": "surveillance",
        "name": "Playhouse Spielothek",
        "opening_hours": "Mo-Sa 08:00-23:59, Su 11:00-23:59",
        "operator": "Playhouse GmbH Faßberg",
        "phone": "+49-5055–1445",
        "postal_code": "29328",
        "surveillance": "indoor"
      },
      "geometry": {
        "type": "Point",
        "coordinates": [
          10.172416,
          52.900779
        ]
      },
      "id": "node/421635503"
    },
    {
      "type": "Feature",
      "properties": {
        "@id": "node/422934302",
        "addr:street": "Rivadavia",
        "amenity": "casino",
        "is_in": "San Fdo. del Valle de Catamarca"
      },
      "geometry": {
        "type": "Point",
        "coordinates": [
          -65.7784693,
          -28.4676988
        ]
      },
      "id": "node/422934302"
    },
    {
      "type": "Feature",
      "properties": {
        "@id": "node/425165252",
        "amenity": "casino",
        "name": "Big Cash Casino"
      },
      "geometry": {
        "type": "Point",
        "coordinates": [
          8.1918512,
          53.2449227
        ]
      },
      "id": "node/425165252"
    },
    {
      "type": "Feature",
      "properties": {
        "@id": "node/431019800",
        "amenity": "casino",
        "cuisine": "asian",
        "name": "Spielothek",
        "wheelchair": "no"
      },
      "geometry": {
        "type": "Point",
        "coordinates": [
          10.7520326,
          50.5097655
        ]
      },
      "id": "node/431019800"
    },
    {
      "type": "Feature",
      "properties": {
        "@id": "node/436362453",
        "amenity": "casino",
        "description": "Casino",
        "is_in": "San Fdo. del Valle de Catamarca"
      },
      "geometry": {
        "type": "Point",
        "coordinates": [
          -65.784407,
          -28.4677081
        ]
      },
      "id": "node/436362453"
    },
    {
      "type": "Feature",
      "properties": {
        "@id": "node/438753393",
        "amenity": "casino",
        "name": "Bingo Punto Zero"
      },
      "geometry": {
        "type": "Point",
        "coordinates": [
          -15.3873184,
          28.0122988
        ]
      },
      "id": "node/438753393"
    },
    {
      "type": "Feature",
      "properties": {
        "@id": "node/441181537",
        "addr:city": "Dessau-Roßlau",
        "addr:country": "DE",
        "addr:housenumber": "44",
        "addr:postcode": "06842",
        "addr:street": "Askanische Straße",
        "amenity": "casino",
        "name": "Dessauer Spielstuben",
        "opening_hours": "Mo-Su 08:00-22:00",
        "operator": "Heronic OHG"
      },
      "geometry": {
        "type": "Point",
        "coordinates": [
          12.2411037,
          51.8309039
        ]
      },
      "id": "node/441181537"
    },
    {
      "type": "Feature",
      "properties": {
        "@id": "node/444722042",
        "amenity": "casino",
        "name": "MaxBet"
      },
      "geometry": {
        "type": "Point",
        "coordinates": [
          28.037162,
          45.4300132
        ]
      },
      "id": "node/444722042"
    },
    {
      "type": "Feature",
      "properties": {
        "@id": "node/450993196",
        "addr:city": "Chișinău",
        "addr:housenumber": "18/1",
        "addr:street": "Bulevardul Dacia",
        "amenity": "casino",
        "check_date": "2021-01-23",
        "name": "Casino Europa",
        "name:en": "Casino Europa",
        "name:fr": "Casino Europa",
        "name:ro": "Casino Europa"
      },
      "geometry": {
        "type": "Point",
        "coordinates": [
          28.8535293,
          46.9882726
        ]
      },
      "id": "node/450993196"
    },
    {
      "type": "Feature",
      "properties": {
        "@id": "node/452446293",
        "amenity": "casino",
        "name": "Spielbank Osnabrück",
        "operator": "Spielbanken Niedersachsen GmbH",
        "website": "https://www.spielbanken-niedersachsen.de/index.php/casinos/osnabrueck"
      },
      "geometry": {
        "type": "Point",
        "coordinates": [
          8.0583315,
          52.2721042
        ]
      },
      "id": "node/452446293"
    },
    {
      "type": "Feature",
      "properties": {
        "@id": "node/452657823",
        "addr:housenumber": "184",
        "addr:street": "Rua do Catete",
        "amenity": "casino",
        "name": "Sinuca Catete"
      },
      "geometry": {
        "type": "Point",
        "coordinates": [
          -43.1768369,
          -22.9272167
        ]
      },
      "id": "node/452657823"
    },
    {
      "type": "Feature",
      "properties": {
        "@id": "node/466090411",
        "amenity": "casino",
        "name": "Spielcasino Borkum",
        "note:de": "nur Automatenspiel",
        "opening_hours": "PH,Mo-Su 10:00-23:00"
      },
      "geometry": {
        "type": "Point",
        "coordinates": [
          6.662328,
          53.5875026
        ]
      },
      "id": "node/466090411"
    },
    {
      "type": "Feature",
      "properties": {
        "@id": "node/475387285",
        "addr:country": "PL",
        "addr:street": "Plac Szczepański",
        "amenity": "casino",
        "name": "Slot Club"
      },
      "geometry": {
        "type": "Point",
        "coordinates": [
          19.9346281,
          50.0636209
        ]
      },
      "id": "node/475387285"
    },
    {
      "type": "Feature",
      "properties": {
        "@id": "node/477356371",
        "amenity": "casino",
        "name": "Spielecasino"
      },
      "geometry": {
        "type": "Point",
        "coordinates": [
          14.1236365,
          52.5046986
        ]
      },
      "id": "node/477356371"
    },
    {
      "type": "Feature",
      "properties": {
        "@id": "node/477458737",
        "addr:city": "Waldshut-Tiengen",
        "addr:country": "DE",
        "addr:housenumber": "1",
        "addr:postcode": "79761",
        "addr:street": "Tiengener Straße",
        "amenity": "casino",
        "internet_access": "terminal",
        "name": "Playnet",
        "opening_hours": "Mo-Fr 00:00-02:00,06:00-24:00; Sa 00:00-03:00,06:00-24:00; Su 00:00-03:00,09:00-24:00",
        "website": "http://hochrhein-casinos.de/"
      },
      "geometry": {
        "type": "Point",
        "coordinates": [
          8.2482884,
          47.6459917
        ]
      },
      "id": "node/477458737"
    },
    {
      "type": "Feature",
      "properties": {
        "@id": "node/479725414",
        "amenity": "casino",
        "name": "Olympic Casino"
      },
      "geometry": {
        "type": "Point",
        "coordinates": [
          24.1084342,
          56.9500743
        ]
      },
      "id": "node/479725414"
    },
    {
      "type": "Feature",
      "properties": {
        "@id": "node/485057714",
        "addr:city": "Augsburg",
        "addr:country": "DE",
        "addr:housenumber": "17",
        "addr:postcode": "86150",
        "addr:street": "Bahnhofstraße",
        "amenity": "casino",
        "name": "Spiel 77 Casino"
      },
      "geometry": {
        "type": "Point",
        "coordinates": [
          10.8899564,
          48.3659367
        ]
      },
      "id": "node/485057714"
    },
    {
      "type": "Feature",
      "properties": {
        "@id": "node/487332431",
        "amenity": "casino",
        "name": "Magic play"
      },
      "geometry": {
        "type": "Point",
        "coordinates": [
          8.6253201,
          48.1694512
        ]
      },
      "id": "node/487332431"
    },
    {
      "type": "Feature",
      "properties": {
        "@id": "node/497186015",
        "addr:city": "Amsterdam",
        "addr:housenumber": "62",
        "addr:postcode": "1017MB",
        "addr:street": "Max Euweplein",
        "amenity": "casino",
        "brand": "Holland Casino",
        "brand:wikidata": "Q361554",
        "brand:wikipedia": "nl:Holland Casino",
        "name": "Holland Casino",
        "operator": "Holland Casino",
        "phone": "+31 20 521 1111",
        "toilets:wheelchair": "no",
        "website": "https://www.hollandcasino.nl",
        "wheelchair": "yes"
      },
      "geometry": {
        "type": "Point",
        "coordinates": [
          4.8821939,
          52.3623271
        ]
      },
      "id": "node/497186015"
    },
    {
      "type": "Feature",
      "properties": {
        "@id": "node/505824249",
        "amenity": "casino",
        "name": "Palace Casino",
        "phone": "01624 662662",
        "website": "https://www.palacehotelcasino.co.im/facilities/casino.html"
      },
      "geometry": {
        "type": "Point",
        "coordinates": [
          -4.4716263,
          54.1629177
        ]
      },
      "id": "node/505824249"
    },
    {
      "type": "Feature",
      "properties": {
        "@id": "node/506039539",
        "amenity": "casino",
        "name": "Casino de Charlevoix"
      },
      "geometry": {
        "type": "Point",
        "coordinates": [
          -70.1444569,
          47.6214641
        ]
      },
      "id": "node/506039539"
    },
    {
      "type": "Feature",
      "properties": {
        "@id": "node/510808357",
        "amenity": "casino",
        "name": "8-Ball",
        "source": "survey",
        "source:position": "Bing Aerial Map"
      },
      "geometry": {
        "type": "Point",
        "coordinates": [
          7.212864,
          51.1396019
        ]
      },
      "id": "node/510808357"
    },
    {
      "type": "Feature",
      "properties": {
        "@id": "node/514239326",
        "addr:city": "Gérardmer",
        "addr:country": "FR",
        "addr:postcode": "88400",
        "amenity": "casino",
        "name": "Casino du Lac"
      },
      "geometry": {
        "type": "Point",
        "coordinates": [
          6.8672341,
          48.0693964
        ]
      },
      "id": "node/514239326"
    },
    {
      "type": "Feature",
      "properties": {
        "@id": "node/516807954",
        "addr:city": "Eindhoven",
        "addr:housenumber": "6",
        "addr:postcode": "5611DB",
        "addr:street": "Nieuwstraat",
        "amenity": "casino",
        "brand": "Fair Play Casino",
        "brand:wikidata": "Q108923693",
        "leisure": "adult_gaming_centre",
        "name": "Fair Play Casino Eindhoven 1",
        "opening_hours": "Mo-Su 10:00-02:00",
        "source": "BAG",
        "source:date": "2014-03-24",
        "website": "https://www.fairplay.nl/casino/eindhoven-nieuwstraat"
      },
      "geometry": {
        "type": "Point",
        "coordinates": [
          5.4793471,
          51.4405502
        ]
      },
      "id": "node/516807954"
    },
    {
      "type": "Feature",
      "properties": {
        "@id": "node/529736944",
        "amenity": "casino",
        "layer": "1",
        "name": "Joker Casino",
        "opening_hours": "Mo-Su 06:00-24:00"
      },
      "geometry": {
        "type": "Point",
        "coordinates": [
          9.7891362,
          48.1673091
        ]
      },
      "id": "node/529736944"
    },
    {
      "type": "Feature",
      "properties": {
        "@id": "node/529808066",
        "amenity": "casino",
        "name": "Senator"
      },
      "geometry": {
        "type": "Point",
        "coordinates": [
          22.0110468,
          41.4357199
        ]
      },
      "id": "node/529808066"
    },
    {
      "type": "Feature",
      "properties": {
        "@id": "node/529808093",
        "amenity": "casino",
        "name": "Atlantic"
      },
      "geometry": {
        "type": "Point",
        "coordinates": [
          22.0113129,
          41.4339118
        ]
      },
      "id": "node/529808093"
    },
    {
      "type": "Feature",
      "properties": {
        "@id": "node/533892571",
        "amenity": "casino",
        "name": "Concord Card Casino"
      },
      "geometry": {
        "type": "Point",
        "coordinates": [
          14.2822544,
          48.3116225
        ]
      },
      "id": "node/533892571"
    },
    {
      "type": "Feature",
      "properties": {
        "@id": "node/534134232",
        "amenity": "casino"
      },
      "geometry": {
        "type": "Point",
        "coordinates": [
          -54.5643924,
          -25.6043623
        ]
      },
      "id": "node/534134232"
    },
    {
      "type": "Feature",
      "properties": {
        "@id": "node/546803741",
        "amenity": "casino",
        "name": "Play Point Spielothek",
        "website": "http://www.play-point.de/"
      },
      "geometry": {
        "type": "Point",
        "coordinates": [
          8.0931579,
          48.7802536
        ]
      },
      "id": "node/546803741"
    },
    {
      "type": "Feature",
      "properties": {
        "@id": "node/549969442",
        "amenity": "casino",
        "name": "Napoleon Games Middelkerke"
      },
      "geometry": {
        "type": "Point",
        "coordinates": [
          2.8132995,
          51.1866844
        ]
      },
      "id": "node/549969442"
    },
    {
      "type": "Feature",
      "properties": {
        "@id": "node/553104648",
        "amenity": "casino",
        "name": "Casino Terrou-Bi"
      },
      "geometry": {
        "type": "Point",
        "coordinates": [
          -17.4661853,
          14.6771442
        ]
      },
      "id": "node/553104648"
    },
    {
      "type": "Feature",
      "properties": {
        "@id": "node/553334050",
        "amenity": "casino",
        "name": "Casino du Port",
        "source": "survey"
      },
      "geometry": {
        "type": "Point",
        "coordinates": [
          -17.4263742,
          14.6719485
        ]
      },
      "id": "node/553334050"
    },
    {
      "type": "Feature",
      "properties": {
        "@id": "node/574614433",
        "amenity": "casino",
        "name": "Broadway Casino",
        "source": "survey"
      },
      "geometry": {
        "type": "Point",
        "coordinates": [
          -1.9211764,
          52.4739844
        ]
      },
      "id": "node/574614433"
    },
    {
      "type": "Feature",
      "properties": {
        "@id": "node/585247003",
        "amenity": "casino",
        "name": "Jeu Pair"
      },
      "geometry": {
        "type": "Point",
        "coordinates": [
          7.5896411,
          50.3521117
        ]
      },
      "id": "node/585247003"
    },
    {
      "type": "Feature",
      "properties": {
        "@id": "node/587665902",
        "amenity": "casino",
        "name": "Grand Casino Bern",
        "wheelchair": "yes",
        "wikidata": "Q18649177"
      },
      "geometry": {
        "type": "Point",
        "coordinates": [
          7.4482682,
          46.9535871
        ]
      },
      "id": "node/587665902"
    },
    {
      "type": "Feature",
      "properties": {
        "@id": "node/589814477",
        "addr:city": "Bydgoszcz",
        "amenity": "casino",
        "name": "Poker Club",
        "source": "http://ump.waw.pl/ retrieved 11:19:07 11/17/09 (UMP-Torun/src/POI-BYDGOSZCZ.punkty.pnt-converted.txt)"
      },
      "geometry": {
        "type": "Point",
        "coordinates": [
          18.010414,
          53.1323169
        ]
      },
      "id": "node/589814477"
    },
    {
      "type": "Feature",
      "properties": {
        "@id": "node/599813627",
        "addr:city": "Homburg",
        "addr:country": "DE",
        "addr:housenumber": "30",
        "addr:postcode": "66424",
        "addr:street": "Saarbrücker Straße",
        "amenity": "casino",
        "name": "Casino Homburg",
        "opening_hours": "PH,Mo-Su 16:00-24:00",
        "wheelchair": "yes"
      },
      "geometry": {
        "type": "Point",
        "coordinates": [
          7.3392508,
          49.3201609
        ]
      },
      "id": "node/599813627"
    },
    {
      "type": "Feature",
      "properties": {
        "@id": "node/600146236",
        "addr:city": "Helsinki",
        "addr:country": "FI",
        "addr:housenumber": "3",
        "addr:postcode": "00100",
        "addr:street": "Kaivopiha, Mannerheimintie",
        "amenity": "casino",
        "name": "Feel Vegas",
        "website": "http://www.feelvegas.fi/helsinki/yhteystiedot-helsinki"
      },
      "geometry": {
        "type": "Point",
        "coordinates": [
          24.9405447,
          60.170129
        ]
      },
      "id": "node/600146236"
    },
    {
      "type": "Feature",
      "properties": {
        "@id": "node/603148881",
        "amenity": "casino",
        "name": "Jack's Casino",
        "source": "survey"
      },
      "geometry": {
        "type": "Point",
        "coordinates": [
          4.5037499,
          52.2122023
        ]
      },
      "id": "node/603148881"
    },
    {
      "type": "Feature",
      "properties": {
        "@id": "node/611875740",
        "addr:city": "Augsburg",
        "addr:country": "DE",
        "addr:housenumber": "3",
        "addr:postcode": "86150",
        "addr:street": "Hermanstraße",
        "amenity": "casino",
        "wheelchair": "no"
      },
      "geometry": {
        "type": "Point",
        "coordinates": [
          10.8937195,
          48.3645341
        ]
      },
      "id": "node/611875740"
    },
    {
      "type": "Feature",
      "properties": {
        "@id": "node/611875771",
        "addr:city": "Augsburg",
        "addr:country": "DE",
        "addr:housenumber": "1",
        "addr:postcode": "86150",
        "addr:street": "Prinzregentenstraße",
        "amenity": "casino"
      },
      "geometry": {
        "type": "Point",
        "coordinates": [
          10.8915623,
          48.3688254
        ]
      },
      "id": "node/611875771"
    },
    {
      "type": "Feature",
      "properties": {
        "@id": "node/614403708",
        "amenity": "casino",
        "name": "Las Vegas"
      },
      "geometry": {
        "type": "Point",
        "coordinates": [
          47.5148512,
          -18.9074343
        ]
      },
      "id": "node/614403708"
    },
    {
      "type": "Feature",
      "properties": {
        "@id": "node/616752984",
        "amenity": "casino",
        "name": "Mistery Jackpot"
      },
      "geometry": {
        "type": "Point",
        "coordinates": [
          47.5221022,
          -18.9071302
        ]
      },
      "id": "node/616752984"
    },
    {
      "type": "Feature",
      "properties": {
        "@id": "node/619467628",
        "amenity": "casino",
        "name": "Las Vegas"
      },
      "geometry": {
        "type": "Point",
        "coordinates": [
          47.526721,
          -18.9116196
        ]
      },
      "id": "node/619467628"
    },
    {
      "type": "Feature",
      "properties": {
        "@id": "node/620900993",
        "amenity": "casino"
      },
      "geometry": {
        "type": "Point",
        "coordinates": [
          47.5247373,
          -18.9044128
        ]
      },
      "id": "node/620900993"
    },
    {
      "type": "Feature",
      "properties": {
        "@id": "node/621444504",
        "amenity": "casino",
        "name": "Machines à Sous"
      },
      "geometry": {
        "type": "Point",
        "coordinates": [
          47.5228683,
          -18.9030737
        ]
      },
      "id": "node/621444504"
    },
    {
      "type": "Feature",
      "properties": {
        "@id": "node/621447789",
        "amenity": "casino",
        "name": "Fule Casino"
      },
      "geometry": {
        "type": "Point",
        "coordinates": [
          47.5239193,
          -18.905635
        ]
      },
      "id": "node/621447789"
    },
    {
      "type": "Feature",
      "properties": {
        "@id": "node/623083766",
        "amenity": "casino"
      },
      "geometry": {
        "type": "Point",
        "coordinates": [
          47.5249609,
          -18.9076105
        ]
      },
      "id": "node/623083766"
    },
    {
      "type": "Feature",
      "properties": {
        "@id": "node/623670245",
        "addr:housenumber": "800",
        "addr:street": "Boulevard du Général Sizaire",
        "amenity": "casino",
        "email": "casino.cayeux@wanadoo.fr",
        "name": "Casino de Cayeux-sur-Mer",
        "phone": "+33 3 22 26 71 56",
        "source": "cadastre-dgi-fr source : Direction Générale des Impôts - Cadastre ; mise à jour : 2010",
        "website": "http://casino-cayeux.fr"
      },
      "geometry": {
        "type": "Point",
        "coordinates": [
          1.4929656,
          50.1827859
        ]
      },
      "id": "node/623670245"
    },
    {
      "type": "Feature",
      "properties": {
        "@id": "node/634555920",
        "amenity": "casino"
      },
      "geometry": {
        "type": "Point",
        "coordinates": [
          25.8421767,
          -17.9286804
        ]
      },
      "id": "node/634555920"
    },
    {
      "type": "Feature",
      "properties": {
        "@id": "node/635951494",
        "amenity": "casino",
        "name": "Eldorado"
      },
      "geometry": {
        "type": "Point",
        "coordinates": [
          26.1632016,
          44.4129212
        ]
      },
      "id": "node/635951494"
    },
    {
      "type": "Feature",
      "properties": {
        "@id": "node/649910609",
        "addr:housenumber": "150-162",
        "addr:street": "Edgware Road",
        "amenity": "casino",
        "name": "The Grosvenor Victoria Casino",
        "website": "http://www.grosvenorvictoriacasino.com/about/our-history/"
      },
      "geometry": {
        "type": "Point",
        "coordinates": [
          -0.1653413,
          51.5171351
        ]
      },
      "id": "node/649910609"
    },
    {
      "type": "Feature",
      "properties": {
        "@id": "node/658956537",
        "amenity": "casino",
        "name": "Cantury Park Card Room"
      },
      "geometry": {
        "type": "Point",
        "coordinates": [
          -93.4832952,
          44.7902772
        ]
      },
      "id": "node/658956537"
    },
    {
      "type": "Feature",
      "properties": {
        "@id": "node/660181585",
        "addr:city": "Freiburg im Breisgau",
        "addr:housenumber": "19a",
        "addr:postcode": "79115",
        "addr:street": "Haslacher Straße",
        "amenity": "casino",
        "entrance": "yes",
        "gambling": "casino",
        "name": "Spiel-Paradies",
        "opening_hours": "Mo-Sa 09:00-24:00; Su,PH,SH 10:00-24:00",
        "source": "voice",
        "surveillance": "indoor"
      },
      "geometry": {
        "type": "Point",
        "coordinates": [
          7.8343506,
          47.9922068
        ]
      },
      "id": "node/660181585"
    },
    {
      "type": "Feature",
      "properties": {
        "@id": "node/660285681",
        "addr:housenumber": "5",
        "addr:street": "Montague Street",
        "amenity": "casino",
        "name": "Colossus",
        "website": "http://www.colossus.ie/",
        "wheelchair": "no"
      },
      "geometry": {
        "type": "Point",
        "coordinates": [
          -6.264712,
          53.3365479
        ]
      },
      "id": "node/660285681"
    },
    {
      "type": "Feature",
      "properties": {
        "@id": "node/660790232",
        "amenity": "casino",
        "name": "Sport-Casino",
        "wheelchair": "limited"
      },
      "geometry": {
        "type": "Point",
        "coordinates": [
          10.6821911,
          53.8664819
        ]
      },
      "id": "node/660790232"
    },
    {
      "type": "Feature",
      "properties": {
        "@id": "node/664125469",
        "addr:conscriptionnumber": "354",
        "addr:country": "CZ",
        "addr:housenumber": "354",
        "addr:place": "Nový Svět",
        "addr:postcode": "51246",
        "amenity": "casino",
        "name": "Casino Bonver",
        "ref:ruian:addr": "16969944"
      },
      "geometry": {
        "type": "Point",
        "coordinates": [
          15.4232016,
          50.7788776
        ]
      },
      "id": "node/664125469"
    },
    {
      "type": "Feature",
      "properties": {
        "@id": "node/666960326",
        "amenity": "casino",
        "brand": "Admiral",
        "brand:wikidata": "Q25205850",
        "brand:wikipedia": "en:Admiral (gambling)",
        "gambling": "slot_machines",
        "leisure": "adult_gaming_centre",
        "name": "Admiral"
      },
      "geometry": {
        "type": "Point",
        "coordinates": [
          17.225298,
          49.5727234
        ]
      },
      "id": "node/666960326"
    },
    {
      "type": "Feature",
      "properties": {
        "@id": "node/667798556",
        "addr:city": "Halle (Saale)",
        "addr:housenumber": "1",
        "addr:postcode": "06110",
        "addr:street": "Franckestraße",
        "alt_name": "Spielbank Halle",
        "amenity": "casino",
        "brand": "Merkur Spielbanken",
        "contact:facebook": "https://www.facebook.com/merkur.spielbank.halle/",
        "email": "info@merkur-spielbanken.de",
        "name": "Merkur Spielbank Halle",
        "opening_hours": "10:00-03:00; Fr,Sa 10:00-04:00",
        "operator": "Merkur Spielbanken Sachsen-Anhalt GmbH & Co. KG",
        "phone": "+493452927730",
        "website": "https://www.merkur-spielbanken.de/standorte/halle-(saale)/"
      },
      "geometry": {
        "type": "Point",
        "coordinates": [
          11.9782889,
          51.4782898
        ]
      },
      "id": "node/667798556"
    },
    {
      "type": "Feature",
      "properties": {
        "@id": "node/670715225",
        "amenity": "casino",
        "name": "Main casino floor"
      },
      "geometry": {
        "type": "Point",
        "coordinates": [
          28.0133925,
          -26.2387523
        ]
      },
      "id": "node/670715225"
    },
    {
      "type": "Feature",
      "properties": {
        "@id": "node/670715293",
        "amenity": "casino",
        "name": "smoking casino"
      },
      "geometry": {
        "type": "Point",
        "coordinates": [
          28.0139074,
          -26.2390218
        ]
      },
      "id": "node/670715293"
    },
    {
      "type": "Feature",
      "properties": {
        "@id": "node/672951355",
        "amenity": "casino",
        "name": "CCM"
      },
      "geometry": {
        "type": "Point",
        "coordinates": [
          46.3075549,
          -15.7236326
        ]
      },
      "id": "node/672951355"
    },
    {
      "type": "Feature",
      "properties": {
        "@id": "node/675307052",
        "addr:city": "Augsburg",
        "addr:country": "DE",
        "addr:housenumber": "3",
        "addr:postcode": "86150",
        "addr:street": "Fuggerstraße",
        "amenity": "casino",
        "name": "Casino Vegas"
      },
      "geometry": {
        "type": "Point",
        "coordinates": [
          10.8935861,
          48.3671069
        ]
      },
      "id": "node/675307052"
    },
    {
      "type": "Feature",
      "properties": {
        "@id": "node/676537726",
        "amenity": "casino",
        "name": "Schnicks Casino"
      },
      "geometry": {
        "type": "Point",
        "coordinates": [
          6.6413494,
          49.7540169
        ]
      },
      "id": "node/676537726"
    },
    {
      "type": "Feature",
      "properties": {
        "@id": "node/676825330",
        "amenity": "casino",
        "name": "Money Maker"
      },
      "geometry": {
        "type": "Point",
        "coordinates": [
          49.4039962,
          -18.1555052
        ]
      },
      "id": "node/676825330"
    },
    {
      "type": "Feature",
      "properties": {
        "@id": "node/676825858",
        "amenity": "casino",
        "name": "Doremi"
      },
      "geometry": {
        "type": "Point",
        "coordinates": [
          49.4149496,
          -18.151394
        ]
      },
      "id": "node/676825858"
    },
    {
      "type": "Feature",
      "properties": {
        "@id": "node/676956576",
        "amenity": "casino",
        "operator": "Europlay",
        "wheelchair": "no"
      },
      "geometry": {
        "type": "Point",
        "coordinates": [
          11.5461489,
          48.2027593
        ]
      },
      "id": "node/676956576"
    },
    {
      "type": "Feature",
      "properties": {
        "@id": "node/677131244",
        "amenity": "casino",
        "name": "Wind Creek Bethlehem",
        "wheelchair": "yes"
      },
      "geometry": {
        "type": "Point",
        "coordinates": [
          -75.3573124,
          40.6149032
        ]
      },
      "id": "node/677131244"
    },
    {
      "type": "Feature",
      "properties": {
        "@id": "node/690937559",
        "addr:city": "Birgu",
        "addr:street": "Ix-Xatt-tal-Birgu",
        "amenity": "casino",
        "name": "Casino di Venezia",
        "phone": "+356 21805580",
        "website": "http://www.casinodivenezia.com.mt/"
      },
      "geometry": {
        "type": "Point",
        "coordinates": [
          14.5199404,
          35.889203
        ]
      },
      "id": "node/690937559"
    },
    {
      "type": "Feature",
      "properties": {
        "@id": "node/693036799",
        "amenity": "casino",
        "name": "C1 Casino Nürnberg"
      },
      "geometry": {
        "type": "Point",
        "coordinates": [
          11.0430941,
          49.4470242
        ]
      },
      "id": "node/693036799"
    },
    {
      "type": "Feature",
      "properties": {
        "@id": "node/693848928",
        "amenity": "casino",
        "name": "Galaxis Spielclub",
        "opening_hours": "Mo-Fr 09:00-22:00; Sa,Su 10:00-22:00"
      },
      "geometry": {
        "type": "Point",
        "coordinates": [
          11.596615,
          52.1287604
        ]
      },
      "id": "node/693848928"
    },
    {
      "type": "Feature",
      "properties": {
        "@id": "node/694826366",
        "amenity": "casino",
        "name": "Funworld Casino"
      },
      "geometry": {
        "type": "Point",
        "coordinates": [
          11.0127025,
          49.477824
        ]
      },
      "id": "node/694826366"
    },
    {
      "type": "Feature",
      "properties": {
        "@id": "node/703864386",
        "addr:housenumber": "63",
        "addr:street": "Dorset Street Lower",
        "amenity": "casino",
        "name": "D1 Club",
        "opening_hours": "Mo-Su 10:00-17:30",
        "toilets:wheelchair": "no",
        "website": "http://www.d1club.ie/",
        "wheelchair": "limited"
      },
      "geometry": {
        "type": "Point",
        "coordinates": [
          -6.260385,
          53.3610799
        ]
      },
      "id": "node/703864386"
    },
    {
      "type": "Feature",
      "properties": {
        "@id": "node/704692408",
        "amenity": "casino",
        "check_date:opening_hours": "2021-03-07",
        "name": "Swiss Casinos Schaffhausen",
        "opening_hours": "Su-Th 12:00-02:00, Fr-Sa 12:00-04:00",
        "phone": "+41 52 630 30 30",
        "website": "https://www.swisscasinos.ch/"
      },
      "geometry": {
        "type": "Point",
        "coordinates": [
          8.6332456,
          47.6951994
        ]
      },
      "id": "node/704692408"
    },
    {
      "type": "Feature",
      "properties": {
        "@id": "node/710972161",
        "amenity": "casino",
        "name": "Lošimo automatai",
        "opening_hours": "Mo-Su 10:00-02:00"
      },
      "geometry": {
        "type": "Point",
        "coordinates": [
          23.2654999,
          55.9102615
        ]
      },
      "id": "node/710972161"
    },
    {
      "type": "Feature",
      "properties": {
        "@id": "node/717805030",
        "amenity": "casino",
        "name": "Spielcenter"
      },
      "geometry": {
        "type": "Point",
        "coordinates": [
          12.2392863,
          51.8843863
        ]
      },
      "id": "node/717805030"
    },
    {
      "type": "Feature",
      "properties": {
        "@id": "node/717805234",
        "amenity": "casino",
        "name": "Elbschlößchen"
      },
      "geometry": {
        "type": "Point",
        "coordinates": [
          12.2410155,
          51.8829116
        ]
      },
      "id": "node/717805234"
    },
    {
      "type": "Feature",
      "properties": {
        "@id": "node/719845769",
        "amenity": "casino",
        "name": "Big Cash"
      },
      "geometry": {
        "type": "Point",
        "coordinates": [
          8.6499845,
          53.0349813
        ]
      },
      "id": "node/719845769"
    },
    {
      "type": "Feature",
      "properties": {
        "@id": "node/724266999",
        "addr:city": "Rostock",
        "addr:country": "DE",
        "addr:housenumber": "7",
        "addr:postcode": "18057",
        "addr:street": "Doberaner Straße",
        "addr:suburb": "Kröpeliner Tor-Vorstadt",
        "amenity": "casino",
        "name": "Automaten-Casino",
        "opening_hours": "08:00-02:00"
      },
      "geometry": {
        "type": "Point",
        "coordinates": [
          12.1249655,
          54.0879838
        ]
      },
      "id": "node/724266999"
    },
    {
      "type": "Feature",
      "properties": {
        "@id": "node/725288197",
        "amenity": "casino",
        "name": "Playothek"
      },
      "geometry": {
        "type": "Point",
        "coordinates": [
          6.6872017,
          51.2004868
        ]
      },
      "id": "node/725288197"
    },
    {
      "type": "Feature",
      "properties": {
        "@id": "node/729207272",
        "amenity": "casino",
        "name": "Casino Ruyven"
      },
      "geometry": {
        "type": "Point",
        "coordinates": [
          4.3955342,
          51.9844858
        ]
      },
      "id": "node/729207272"
    },
    {
      "type": "Feature",
      "properties": {
        "@id": "node/730925251",
        "access:dogs": "no",
        "amenity": "casino",
        "man_made": "surveillance",
        "name": "Spiel-Cafe",
        "opening_hours": "08:00-02:00",
        "surveillance": "indoor",
        "surveillance:type": "camera",
        "surveillance:zone": "shop"
      },
      "geometry": {
        "type": "Point",
        "coordinates": [
          12.134743,
          54.0902281
        ]
      },
      "id": "node/730925251"
    },
    {
      "type": "Feature",
      "properties": {
        "@id": "node/730989294",
        "amenity": "casino",
        "name": "City Casino"
      },
      "geometry": {
        "type": "Point",
        "coordinates": [
          24.698929,
          59.4222877
        ]
      },
      "id": "node/730989294"
    },
    {
      "type": "Feature",
      "properties": {
        "@id": "node/732765684",
        "amenity": "casino",
        "name": "Grand Prix"
      },
      "geometry": {
        "type": "Point",
        "coordinates": [
          24.7454427,
          59.4352509
        ]
      },
      "id": "node/732765684"
    },
    {
      "type": "Feature",
      "properties": {
        "@id": "node/732765702",
        "amenity": "casino",
        "name": "City Casino",
        "website": "https://www.citycasino.ee/"
      },
      "geometry": {
        "type": "Point",
        "coordinates": [
          24.7470735,
          59.4347735
        ]
      },
      "id": "node/732765702"
    },
    {
      "type": "Feature",
      "properties": {
        "@id": "node/736599570",
        "amenity": "casino",
        "name": "Spielothek"
      },
      "geometry": {
        "type": "Point",
        "coordinates": [
          12.0582739,
          54.1332712
        ]
      },
      "id": "node/736599570"
    },
    {
      "type": "Feature",
      "properties": {
        "@id": "node/736933136",
        "amenity": "casino",
        "source": "cadastre-dgi-fr source : Direction Générale des Impôts - Cadastre. Mise à jour : 2010"
      },
      "geometry": {
        "type": "Point",
        "coordinates": [
          -2.4053751,
          47.2809446
        ]
      },
      "id": "node/736933136"
    },
    {
      "type": "Feature",
      "properties": {
        "@id": "node/745691065",
        "amenity": "casino",
        "name": "Metropol"
      },
      "geometry": {
        "type": "Point",
        "coordinates": [
          24.744206,
          59.4342914
        ]
      },
      "id": "node/745691065"
    },
    {
      "type": "Feature",
      "properties": {
        "@id": "node/759809311",
        "addr:housenumber": "54-56",
        "addr:street": "Kaistraße",
        "amenity": "casino",
        "name": "Automaten Casino",
        "opening_hours": "Su-Th 10:00-02:00, Fr-Sa 10:00-03:00",
        "phone": "+49 431 6794588",
        "website": "https://www.seeland-automaten.de",
        "wheelchair": "limited"
      },
      "geometry": {
        "type": "Point",
        "coordinates": [
          10.1326954,
          54.3148732
        ]
      },
      "id": "node/759809311"
    },
    {
      "type": "Feature",
      "properties": {
        "@id": "node/761234035",
        "amenity": "casino"
      },
      "geometry": {
        "type": "Point",
        "coordinates": [
          44.7618949,
          41.726873
        ]
      },
      "id": "node/761234035"
    },
    {
      "type": "Feature",
      "properties": {
        "@id": "node/761234043",
        "amenity": "casino",
        "name": "Slot Club"
      },
      "geometry": {
        "type": "Point",
        "coordinates": [
          44.7594233,
          41.7270592
        ]
      },
      "id": "node/761234043"
    },
    {
      "type": "Feature",
      "properties": {
        "@id": "node/761234045",
        "amenity": "casino"
      },
      "geometry": {
        "type": "Point",
        "coordinates": [
          44.7632208,
          41.7273951
        ]
      },
      "id": "node/761234045"
    },
    {
      "type": "Feature",
      "properties": {
        "@id": "node/761234065",
        "amenity": "casino"
      },
      "geometry": {
        "type": "Point",
        "coordinates": [
          44.7629608,
          41.7274385
        ]
      },
      "id": "node/761234065"
    },
    {
      "type": "Feature",
      "properties": {
        "@id": "node/778678114",
        "amenity": "casino",
        "name": "Casino JOA"
      },
      "geometry": {
        "type": "Point",
        "coordinates": [
          6.0309332,
          47.2429932
        ]
      },
      "id": "node/778678114"
    },
    {
      "type": "Feature",
      "properties": {
        "@id": "node/790088788",
        "addr:city": "Mönchengladbach",
        "addr:country": "DE",
        "addr:housenumber": "70",
        "addr:postcode": "41236",
        "addr:street": "Stresemannstraße",
        "amenity": "casino",
        "name": "Merkur-Spielothek",
        "phone": "+49 2166 41447",
        "wheelchair": "limited"
      },
      "geometry": {
        "type": "Point",
        "coordinates": [
          6.446037,
          51.1660879
        ]
      },
      "id": "node/790088788"
    },
    {
      "type": "Feature",
      "properties": {
        "@id": "node/802176279",
        "addr:housenumber": "48",
        "addr:street": "Hauptstraße",
        "amenity": "casino",
        "name": "Goldener Hut",
        "wheelchair": "no"
      },
      "geometry": {
        "type": "Point",
        "coordinates": [
          8.3739973,
          49.3817956
        ]
      },
      "id": "node/802176279"
    },
    {
      "type": "Feature",
      "properties": {
        "@id": "node/821269500",
        "amenity": "casino",
        "brand": "Holland Casino",
        "brand:wikidata": "Q361554",
        "name": "Holland Casino"
      },
      "geometry": {
        "type": "Point",
        "coordinates": [
          5.7724954,
          53.1998062
        ]
      },
      "id": "node/821269500"
    },
    {
      "type": "Feature",
      "properties": {
        "@id": "node/821712183",
        "amenity": "casino",
        "name": "Le Casino"
      },
      "geometry": {
        "type": "Point",
        "coordinates": [
          57.4990445,
          -20.1615008
        ]
      },
      "id": "node/821712183"
    },
    {
      "type": "Feature",
      "properties": {
        "@id": "node/824114010",
        "amenity": "casino"
      },
      "geometry": {
        "type": "Point",
        "coordinates": [
          11.7911163,
          51.1509596
        ]
      },
      "id": "node/824114010"
    },
    {
      "type": "Feature",
      "properties": {
        "@id": "node/832855911",
        "addr:housenumber": "6",
        "addr:street": "Ludwigstraße",
        "amenity": "casino",
        "name": "Magic Casino"
      },
      "geometry": {
        "type": "Point",
        "coordinates": [
          8.3739856,
          49.3856734
        ]
      },
      "id": "node/832855911"
    },
    {
      "type": "Feature",
      "properties": {
        "@id": "node/833844984",
        "amenity": "casino",
        "name": "Arena"
      },
      "geometry": {
        "type": "Point",
        "coordinates": [
          8.3716974,
          49.3822434
        ]
      },
      "id": "node/833844984"
    },
    {
      "type": "Feature",
      "properties": {
        "@id": "node/837359233",
        "addr:city": "Neu-Ulm",
        "addr:country": "DE",
        "addr:housenumber": "72",
        "addr:postcode": "89231",
        "addr:street": "Finninger Straße",
        "amenity": "casino",
        "name": "Klingothek Joker Neu-Ulm"
      },
      "geometry": {
        "type": "Point",
        "coordinates": [
          10.02508,
          48.3905585
        ]
      },
      "id": "node/837359233"
    },
    {
      "type": "Feature",
      "properties": {
        "@id": "node/840582986",
        "addr:housenumber": "6",
        "addr:street": "бульвар Шевченко",
        "amenity": "casino",
        "name": "Palazzo",
        "name:en": "Palace",
        "name:ru": "Палаццо"
      },
      "geometry": {
        "type": "Point",
        "coordinates": [
          23.7041936,
          52.0862805
        ]
      },
      "id": "node/840582986"
    },
    {
      "type": "Feature",
      "properties": {
        "@id": "node/842669915",
        "amenity": "casino",
        "name": "Spielhalle"
      },
      "geometry": {
        "type": "Point",
        "coordinates": [
          10.9190159,
          50.6843482
        ]
      },
      "id": "node/842669915"
    },
    {
      "type": "Feature",
      "properties": {
        "@id": "node/847448568",
        "amenity": "casino"
      },
      "geometry": {
        "type": "Point",
        "coordinates": [
          10.8480959,
          51.366935
        ]
      },
      "id": "node/847448568"
    },
    {
      "type": "Feature",
      "properties": {
        "@id": "node/847449842",
        "amenity": "casino"
      },
      "geometry": {
        "type": "Point",
        "coordinates": [
          10.8948776,
          51.3634318
        ]
      },
      "id": "node/847449842"
    },
    {
      "type": "Feature",
      "properties": {
        "@id": "node/860977694",
        "addr:city": "Flensburg",
        "addr:country": "DE",
        "addr:housenumber": "16",
        "addr:postcode": "24937",
        "addr:street": "Süderhofenden",
        "amenity": "casino",
        "name": "Spielbank"
      },
      "geometry": {
        "type": "Point",
        "coordinates": [
          9.4372012,
          54.785245
        ]
      },
      "id": "node/860977694"
    },
    {
      "type": "Feature",
      "properties": {
        "@id": "node/869382630",
        "amenity": "casino",
        "email": "salzburg@casinos.at",
        "name": "Casino Salzburg",
        "opening_hours": "Mo-Su 10:00-03:00",
        "operator": "Casinos Austria AG",
        "phone": "+436628544550",
        "website": "https://www.casinos.at/de/salzburg"
      },
      "geometry": {
        "type": "Point",
        "coordinates": [
          12.9920957,
          47.819516
        ]
      },
      "id": "node/869382630"
    },
    {
      "type": "Feature",
      "properties": {
        "@id": "node/874253674",
        "amenity": "casino",
        "name": "Kotti Sports Bar"
      },
      "geometry": {
        "type": "Point",
        "coordinates": [
          13.4167414,
          52.4994163
        ]
      },
      "id": "node/874253674"
    },
    {
      "type": "Feature",
      "properties": {
        "@id": "node/874265709",
        "addr:city": "Berlin",
        "addr:country": "DE",
        "addr:postcode": "10999",
        "addr:street": "Dresdener Straße",
        "addr:suburb": "Kreuzberg",
        "amenity": "casino",
        "name": "Liyan",
        "wheelchair": "no"
      },
      "geometry": {
        "type": "Point",
        "coordinates": [
          13.4176565,
          52.5002793
        ]
      },
      "id": "node/874265709"
    },
    {
      "type": "Feature",
      "properties": {
        "@id": "node/874355743",
        "addr:city": "Berlin",
        "addr:country": "DE",
        "addr:housenumber": "49",
        "addr:postcode": "10969",
        "addr:street": "Oranienstraße",
        "addr:suburb": "Kreuzberg",
        "amenity": "casino",
        "check_date:opening_hours": "2022-05-10",
        "name": "Stern Play",
        "opening_hours:signed": "no",
        "wheelchair": "no"
      },
      "geometry": {
        "type": "Point",
        "coordinates": [
          13.4129413,
          52.5031455
        ]
      },
      "id": "node/874355743"
    },
    {
      "type": "Feature",
      "properties": {
        "@id": "node/876270914",
        "amenity": "casino",
        "name": "Happy Sport Bar",
        "wheelchair": "no"
      },
      "geometry": {
        "type": "Point",
        "coordinates": [
          13.4272786,
          52.5001385
        ]
      },
      "id": "node/876270914"
    },
    {
      "type": "Feature",
      "properties": {
        "@id": "node/884353187",
        "amenity": "casino",
        "name": "Herňa Gloria"
      },
      "geometry": {
        "type": "Point",
        "coordinates": [
          17.1384098,
          48.1552153
        ]
      },
      "id": "node/884353187"
    },
    {
      "type": "Feature",
      "properties": {
        "@id": "node/886005663",
        "amenity": "casino",
        "name": "Gold Mine Club"
      },
      "geometry": {
        "type": "Point",
        "coordinates": [
          108.203871,
          10.9485082
        ]
      },
      "id": "node/886005663"
    },
    {
      "type": "Feature",
      "properties": {
        "@id": "node/886748835",
        "amenity": "casino",
        "internet_access": "wlan",
        "name": "Klondaika",
        "name:en": "Klondaika",
        "name:lv": "Klondaika",
        "opening_hours": "24/7",
        "phone": "+371 67226888"
      },
      "geometry": {
        "type": "Point",
        "coordinates": [
          24.1106647,
          56.9471338
        ]
      },
      "id": "node/886748835"
    },
    {
      "type": "Feature",
      "properties": {
        "@id": "node/896313585",
        "amenity": "casino",
        "name": "play machines",
        "name:en": "play machines"
      },
      "geometry": {
        "type": "Point",
        "coordinates": [
          35.5439607,
          32.7863004
        ]
      },
      "id": "node/896313585"
    },
    {
      "type": "Feature",
      "properties": {
        "@id": "node/896454316",
        "amenity": "casino",
        "name": "Joker",
        "opening_hours": "24/7"
      },
      "geometry": {
        "type": "Point",
        "coordinates": [
          26.5222921,
          55.8708991
        ]
      },
      "id": "node/896454316"
    },
    {
      "type": "Feature",
      "properties": {
        "@id": "node/898947175",
        "amenity": "casino",
        "name": "Intacto"
      },
      "geometry": {
        "type": "Point",
        "coordinates": [
          18.2842459,
          49.8355307
        ]
      },
      "id": "node/898947175"
    },
    {
      "type": "Feature",
      "properties": {
        "@id": "node/900960077",
        "amenity": "casino",
        "name": "Spielparadies",
        "opening_hours": "Mo-Sa 06:00-24:00; PH,Su 11:00-24:00"
      },
      "geometry": {
        "type": "Point",
        "coordinates": [
          9.5581191,
          51.6377455
        ]
      },
      "id": "node/900960077"
    },
    {
      "type": "Feature",
      "properties": {
        "@id": "node/904499318",
        "addr:city": "Mont-Tremblant",
        "addr:housenumber": "300",
        "addr:street": "Chemin des Pléiades",
        "amenity": "casino",
        "name": "Casino de Mont-Tremblant",
        "operator": "Loto-Québec"
      },
      "geometry": {
        "type": "Point",
        "coordinates": [
          -74.5683479,
          46.2010896
        ]
      },
      "id": "node/904499318"
    },
    {
      "type": "Feature",
      "properties": {
        "@id": "node/905962774",
        "amenity": "casino",
        "name": "Glawes Spiel Laden"
      },
      "geometry": {
        "type": "Point",
        "coordinates": [
          11.4092123,
          53.6329663
        ]
      },
      "id": "node/905962774"
    },
    {
      "type": "Feature",
      "properties": {
        "@id": "node/905962879",
        "amenity": "casino",
        "name": "City Play"
      },
      "geometry": {
        "type": "Point",
        "coordinates": [
          11.4095483,
          53.6325702
        ]
      },
      "id": "node/905962879"
    },
    {
      "type": "Feature",
      "properties": {
        "@id": "node/907351913",
        "amenity": "casino",
        "name": "Century Imperial"
      },
      "geometry": {
        "type": "Point",
        "coordinates": [
          -73.0329417,
          5.8267359
        ]
      },
      "id": "node/907351913"
    },
    {
      "type": "Feature",
      "properties": {
        "@id": "node/914122345",
        "amenity": "casino",
        "name": "Casino Monte Picaio"
      },
      "geometry": {
        "type": "Point",
        "coordinates": [
          -0.3142257,
          39.6332104
        ]
      },
      "id": "node/914122345"
    },
    {
      "type": "Feature",
      "properties": {
        "@id": "node/919771975",
        "amenity": "casino",
        "name": "Casino Atlantis"
      },
      "geometry": {
        "type": "Point",
        "coordinates": [
          11.2960502,
          52.1006311
        ]
      },
      "id": "node/919771975"
    },
    {
      "type": "Feature",
      "properties": {
        "@id": "node/929948352",
        "amenity": "casino",
        "name": "Apex"
      },
      "geometry": {
        "type": "Point",
        "coordinates": [
          19.665447,
          46.1029184
        ]
      },
      "id": "node/929948352"
    },
    {
      "type": "Feature",
      "properties": {
        "@id": "node/930740946",
        "amenity": "casino",
        "name": "Rulet"
      },
      "geometry": {
        "type": "Point",
        "coordinates": [
          19.6687112,
          46.1005454
        ]
      },
      "id": "node/930740946"
    },
    {
      "type": "Feature",
      "properties": {
        "@id": "node/930740949",
        "amenity": "casino",
        "name": "Apex"
      },
      "geometry": {
        "type": "Point",
        "coordinates": [
          19.6685971,
          46.1007504
        ]
      },
      "id": "node/930740949"
    },
    {
      "type": "Feature",
      "properties": {
        "@id": "node/930775657",
        "amenity": "casino",
        "name": "Wulti Club"
      },
      "geometry": {
        "type": "Point",
        "coordinates": [
          19.6689377,
          46.1007919
        ]
      },
      "id": "node/930775657"
    },
    {
      "type": "Feature",
      "properties": {
        "@id": "node/930932848",
        "amenity": "casino",
        "name": "Спортска кладионица Таш",
        "name:sr": "Спортска кладионица Таш",
        "name:sr-Latn": "Sportska kladionica Taš"
      },
      "geometry": {
        "type": "Point",
        "coordinates": [
          19.6697453,
          46.1008713
        ]
      },
      "id": "node/930932848"
    },
    {
      "type": "Feature",
      "properties": {
        "@id": "node/938884254",
        "addr:city": "Hannover",
        "addr:country": "DE",
        "addr:housenumber": "357",
        "addr:postcode": "30519",
        "addr:street": "Hildesheimer Straße",
        "amenity": "casino",
        "description:de": "Spielsalon",
        "name": "Winner Spielcasino",
        "toilets:wheelchair": "no",
        "wheelchair": "limited"
      },
      "geometry": {
        "type": "Point",
        "coordinates": [
          9.7762907,
          52.329476
        ]
      },
      "id": "node/938884254"
    },
    {
      "type": "Feature",
      "properties": {
        "@id": "node/938884862",
        "amenity": "casino",
        "description:de": "Spielsalon",
        "name": "B+B Spielstube",
        "wheelchair": "no"
      },
      "geometry": {
        "type": "Point",
        "coordinates": [
          9.7520963,
          52.3577073
        ]
      },
      "id": "node/938884862"
    },
    {
      "type": "Feature",
      "properties": {
        "@id": "node/948605598",
        "addr:city": "Wien",
        "addr:country": "AT",
        "addr:housenumber": "41",
        "addr:postcode": "1010",
        "addr:street": "Kärntner Straße",
        "amenity": "casino",
        "man_made": "surveillance",
        "name": "Casino Wien",
        "opening_hours": "Mo-Su 15:00-04:00",
        "surveillance": "indoor",
        "website": "http://www.casinos.at/content/content.aspx?muid=abd6f4f2-3f5e-41c1-81fa-d8c86ae3fc92",
        "wheelchair": "yes"
      },
      "geometry": {
        "type": "Point",
        "coordinates": [
          16.3707809,
          48.2044441
        ]
      },
      "id": "node/948605598"
    },
    {
      "type": "Feature",
      "properties": {
        "@id": "node/950769392",
        "amenity": "casino",
        "internet_access": "yes",
        "internet_access:fee": "yes",
        "name": "play 2000",
        "sport": "pool",
        "wheelchair": "limited"
      },
      "geometry": {
        "type": "Point",
        "coordinates": [
          7.6501909,
          51.9051139
        ]
      },
      "id": "node/950769392"
    },
    {
      "type": "Feature",
      "properties": {
        "@id": "node/956426869",
        "addr:city": "Cork",
        "addr:housenumber": "53",
        "addr:street": "Cornmarket Street",
        "amenity": "casino",
        "name": "Coral quay leisure"
      },
      "geometry": {
        "type": "Point",
        "coordinates": [
          -8.4770331,
          51.8999138
        ]
      },
      "id": "node/956426869"
    },
    {
      "type": "Feature",
      "properties": {
        "@id": "node/970857008",
        "amenity": "casino",
        "name": "Grosvenor St Giles Casino",
        "old_name": "Gala Casino",
        "operator": "Grosvenor Casinos"
      },
      "geometry": {
        "type": "Point",
        "coordinates": [
          -0.1306879,
          51.517245
        ]
      },
      "id": "node/970857008"
    },
    {
      "type": "Feature",
      "properties": {
        "@id": "node/975892570",
        "amenity": "casino",
        "contact:email": "info@spielbank-stuttgart.de",
        "contact:fax": "+49 711 90019 49",
        "contact:phone": "+49 711 90019 0",
        "contact:website": "http://www.spielbank-stuttgart.de",
        "name": "Spielbank Stuttgart"
      },
      "geometry": {
        "type": "Point",
        "coordinates": [
          9.1607257,
          48.7227286
        ]
      },
      "id": "node/975892570"
    },
    {
      "type": "Feature",
      "properties": {
        "@id": "node/977419749",
        "amenity": "casino",
        "brand": "Codere",
        "brand:wikidata": "Q2918415",
        "brand:wikipedia": "es:Codere",
        "name": "Codere",
        "operator": "Codere"
      },
      "geometry": {
        "type": "Point",
        "coordinates": [
          -3.6704557,
          40.407041
        ]
      },
      "id": "node/977419749"
    },
    {
      "type": "Feature",
      "properties": {
        "@id": "node/977539264",
        "amenity": "casino",
        "name": "Kasíno Nitra",
        "opening_hours": "Mo-Su 09:00-21:00"
      },
      "geometry": {
        "type": "Point",
        "coordinates": [
          18.1028469,
          48.3173654
        ]
      },
      "id": "node/977539264"
    },
    {
      "type": "Feature",
      "properties": {
        "@id": "node/981645633",
        "addr:city": "Hamburg",
        "addr:country": "DE",
        "addr:housenumber": "21",
        "addr:postcode": "21073",
        "addr:street": "Moorstraße",
        "amenity": "casino",
        "name": "Fun&Play Casino",
        "source": "survey"
      },
      "geometry": {
        "type": "Point",
        "coordinates": [
          9.9872257,
          53.4571669
        ]
      },
      "id": "node/981645633"
    },
    {
      "type": "Feature",
      "properties": {
        "@id": "node/983342562",
        "amenity": "casino",
        "wheelchair": "limited"
      },
      "geometry": {
        "type": "Point",
        "coordinates": [
          14.9843099,
          51.1515361
        ]
      },
      "id": "node/983342562"
    },
    {
      "type": "Feature",
      "properties": {
        "@id": "node/992853132",
        "amenity": "casino",
        "name": "Münz Casino"
      },
      "geometry": {
        "type": "Point",
        "coordinates": [
          8.7637405,
          51.7294725
        ]
      },
      "id": "node/992853132"
    },
    {
      "type": "Feature",
      "properties": {
        "@id": "node/993518127",
        "amenity": "casino",
        "name": "Flamingo",
        "opening_hours": "24/7",
        "source": "survey"
      },
      "geometry": {
        "type": "Point",
        "coordinates": [
          17.1468489,
          48.1526513
        ]
      },
      "id": "node/993518127"
    },
    {
      "type": "Feature",
      "properties": {
        "@id": "node/996894472",
        "amenity": "casino",
        "name": "Playworld"
      },
      "geometry": {
        "type": "Point",
        "coordinates": [
          11.6411817,
          52.1050784
        ]
      },
      "id": "node/996894472"
    },
    {
      "type": "Feature",
      "properties": {
        "@id": "node/1001343319",
        "addr:city": "Coquimbo",
        "addr:housenumber": "56",
        "addr:street": "Peñuelas Norte",
        "amenity": "casino",
        "name": "Casino Enjoy Coquimbo",
        "operator": "Enjoy",
        "website": "https://www.enjoy.cl/#/coquimbo",
        "wikidata": "Q5756290",
        "wikipedia": "es:Enjoy Coquimbo"
      },
      "geometry": {
        "type": "Point",
        "coordinates": [
          -71.2916528,
          -29.9470551
        ]
      },
      "id": "node/1001343319"
    },
    {
      "type": "Feature",
      "properties": {
        "@id": "node/1001526434",
        "addr:city": "Bochum",
        "addr:housenumber": "397",
        "addr:postcode": "44795",
        "addr:street": "Markstraße",
        "amenity": "casino",
        "name": "Megaplay",
        "wheelchair": "limited"
      },
      "geometry": {
        "type": "Point",
        "coordinates": [
          7.2166492,
          51.4424787
        ]
      },
      "id": "node/1001526434"
    },
    {
      "type": "Feature",
      "properties": {
        "@id": "node/1004410634",
        "amenity": "casino",
        "name": "Admiral Club"
      },
      "geometry": {
        "type": "Point",
        "coordinates": [
          23.316216,
          55.9300225
        ]
      },
      "id": "node/1004410634"
    },
    {
      "type": "Feature",
      "properties": {
        "@id": "node/1013800592",
        "amenity": "casino",
        "name": "Mindener Spieltreff",
        "opening_hours": "Mo-Su 06:00-01:00",
        "wheelchair": "yes"
      },
      "geometry": {
        "type": "Point",
        "coordinates": [
          8.9032091,
          52.2784601
        ]
      },
      "id": "node/1013800592"
    },
    {
      "type": "Feature",
      "properties": {
        "@id": "node/1014350265",
        "amenity": "casino",
        "name": "Joker Spielothek"
      },
      "geometry": {
        "type": "Point",
        "coordinates": [
          8.0461219,
          52.2756092
        ]
      },
      "id": "node/1014350265"
    },
    {
      "type": "Feature",
      "properties": {
        "@id": "node/1015213559",
        "amenity": "casino",
        "name": "New Generation Games",
        "wheelchair": "yes"
      },
      "geometry": {
        "type": "Point",
        "coordinates": [
          8.6082013,
          51.9114829
        ]
      },
      "id": "node/1015213559"
    },
    {
      "type": "Feature",
      "properties": {
        "@id": "node/1018019814",
        "amenity": "casino",
        "name": "Flippothek"
      },
      "geometry": {
        "type": "Point",
        "coordinates": [
          8.0256958,
          52.2904162
        ]
      },
      "id": "node/1018019814"
    },
    {
      "type": "Feature",
      "properties": {
        "@id": "node/1023444882",
        "amenity": "casino",
        "name": "Tete Casino"
      },
      "geometry": {
        "type": "Point",
        "coordinates": [
          23.2954064,
          55.920808
        ]
      },
      "id": "node/1023444882"
    },
    {
      "type": "Feature",
      "properties": {
        "@id": "node/1030016972",
        "amenity": "casino",
        "name": "Casino De Wereld"
      },
      "geometry": {
        "type": "Point",
        "coordinates": [
          4.4304968,
          52.2443708
        ]
      },
      "id": "node/1030016972"
    },
    {
      "type": "Feature",
      "properties": {
        "@id": "node/1032028455",
        "amenity": "casino",
        "name": "Casino de Asturias"
      },
      "geometry": {
        "type": "Point",
        "coordinates": [
          -5.6625797,
          43.5395702
        ]
      },
      "id": "node/1032028455"
    },
    {
      "type": "Feature",
      "properties": {
        "@id": "node/1037064912",
        "amenity": "casino",
        "name": "Mermaid Casino"
      },
      "geometry": {
        "type": "Point",
        "coordinates": [
          14.5274121,
          -22.6741099
        ]
      },
      "id": "node/1037064912"
    },
    {
      "type": "Feature",
      "properties": {
        "@id": "node/1037781580",
        "addr:city": "Cardiff",
        "addr:country": "GB",
        "addr:housename": "Capital Retail Park",
        "addr:housenumber": "8",
        "addr:postcode": "CF11 8EG",
        "addr:street": "Leckwith Road",
        "addr:suburb": "Canton",
        "amenity": "casino",
        "fhrs:id": "969515",
        "name": "Les Croupiers Casino",
        "opening_hours": "Mo-Su 00:00-05:00, 14:00-00:00",
        "source": "local_knowledge"
      },
      "geometry": {
        "type": "Point",
        "coordinates": [
          -3.2049729,
          51.4705759
        ]
      },
      "id": "node/1037781580"
    },
    {
      "type": "Feature",
      "properties": {
        "@id": "node/1038597534",
        "amenity": "casino",
        "name": "Automat club"
      },
      "geometry": {
        "type": "Point",
        "coordinates": [
          18.6534409,
          45.5638827
        ]
      },
      "id": "node/1038597534"
    },
    {
      "type": "Feature",
      "properties": {
        "@id": "node/1054718711",
        "amenity": "casino",
        "name": "Jackpot Spielcenter",
        "opening_hours": "Mo-Sa 07:00-24:00; PH,Su 11:00-24:00"
      },
      "geometry": {
        "type": "Point",
        "coordinates": [
          10.4274815,
          53.2511462
        ]
      },
      "id": "node/1054718711"
    },
    {
      "type": "Feature",
      "properties": {
        "@id": "node/1054718760",
        "amenity": "casino",
        "name": "Jackpot Spielcenter",
        "opening_hours": "Mo-Su,PH 06:00-24:00"
      },
      "geometry": {
        "type": "Point",
        "coordinates": [
          10.4235271,
          53.2512687
        ]
      },
      "id": "node/1054718760"
    },
    {
      "type": "Feature",
      "properties": {
        "@id": "node/1054718764",
        "amenity": "casino",
        "name": "Spielhalle",
        "opening_hours": "Mo-Sa 06:00-24:00; PH,Su 11:00-24:00"
      },
      "geometry": {
        "type": "Point",
        "coordinates": [
          10.4187326,
          53.249761
        ]
      },
      "id": "node/1054718764"
    },
    {
      "type": "Feature",
      "properties": {
        "@id": "node/1058074915",
        "addr:city": "Herbrechtingen",
        "addr:housenumber": "18",
        "addr:postcode": "89542",
        "addr:street": "Ziegelei",
        "amenity": "casino",
        "name": "Merkur Spielothek",
        "opening_hours": "Mo-Sa 06:00-24:00; Su 11:00-24:00",
        "website": "https://www.merkur-spielothek.de/"
      },
      "geometry": {
        "type": "Point",
        "coordinates": [
          10.2025887,
          48.6120737
        ]
      },
      "id": "node/1058074915"
    },
    {
      "type": "Feature",
      "properties": {
        "@id": "node/1079053272",
        "amenity": "casino",
        "name": "Casino",
        "operator": "Tete A tete"
      },
      "geometry": {
        "type": "Point",
        "coordinates": [
          23.3167872,
          55.9301461
        ]
      },
      "id": "node/1079053272"
    },
    {
      "type": "Feature",
      "properties": {
        "@id": "node/1084085056",
        "addr:city": "Toulouse",
        "addr:housenumber": "18",
        "addr:postcode": "31400",
        "addr:street": "Chemin de la Loge",
        "amenity": "casino",
        "contact:phone": "+33561333777",
        "name": "Casino-Théâtre Barrière",
        "wikidata": "Q16536414",
        "wikipedia": "fr:Casino-théâtre de Toulouse"
      },
      "geometry": {
        "type": "Point",
        "coordinates": [
          1.4344472,
          43.5721644
        ]
      },
      "id": "node/1084085056"
    },
    {
      "type": "Feature",
      "properties": {
        "@id": "node/1084433294",
        "addr:city": "Newbridge",
        "addr:country": "IE",
        "addr:county": "Kildare",
        "addr:street": "George's Street",
        "amenity": "casino",
        "name": "The River Card Club"
      },
      "geometry": {
        "type": "Point",
        "coordinates": [
          -6.797985,
          53.1815976
        ]
      },
      "id": "node/1084433294"
    },
    {
      "type": "Feature",
      "properties": {
        "@id": "node/1092777188",
        "amenity": "casino",
        "description": "Automatenspielhalle",
        "name": "MV - Casino",
        "opening_hours": "PH,Mo-Su 08:00-02:00",
        "wheelchair": "no"
      },
      "geometry": {
        "type": "Point",
        "coordinates": [
          12.1126203,
          54.0920087
        ]
      },
      "id": "node/1092777188"
    },
    {
      "type": "Feature",
      "properties": {
        "@id": "node/1094134707",
        "addr:city": "Heilbronn",
        "addr:country": "DE",
        "addr:housenumber": "2",
        "addr:postcode": "74080",
        "addr:street": "Albert-Schäffler-Straße",
        "amenity": "casino",
        "name": "Merkur Spielothek Casino"
      },
      "geometry": {
        "type": "Point",
        "coordinates": [
          9.1993302,
          49.1490664
        ]
      },
      "id": "node/1094134707"
    },
    {
      "type": "Feature",
      "properties": {
        "@id": "node/1094134914",
        "addr:city": "Heilbronn",
        "addr:country": "DE",
        "addr:housenumber": "8",
        "addr:postcode": "74080",
        "addr:street": "Albert-Schäffler-Straße",
        "amenity": "casino",
        "name": "Casino V one"
      },
      "geometry": {
        "type": "Point",
        "coordinates": [
          9.1989994,
          49.1499096
        ]
      },
      "id": "node/1094134914"
    },
    {
      "type": "Feature",
      "properties": {
        "@id": "node/1102515322",
        "addr:city": "Antofagasta",
        "addr:housenumber": "01455",
        "addr:street": "Avenida Angamos",
        "amenity": "casino",
        "name": "Enjoy Antofagasta",
        "website": "https://www.enjoy.cl/antofagasta"
      },
      "geometry": {
        "type": "Point",
        "coordinates": [
          -70.4145518,
          -23.6850978
        ]
      },
      "id": "node/1102515322"
    },
    {
      "type": "Feature",
      "properties": {
        "@id": "node/1107963128",
        "addr:housenumber": "105",
        "addr:street": "Avenida Barros Luco",
        "amenity": "casino",
        "name": "Casino del Pacifico"
      },
      "geometry": {
        "type": "Point",
        "coordinates": [
          -71.6140262,
          -33.5813134
        ]
      },
      "id": "node/1107963128"
    },
    {
      "type": "Feature",
      "properties": {
        "@id": "node/1119052610",
        "amenity": "casino",
        "name": "casino del rey"
      },
      "geometry": {
        "type": "Point",
        "coordinates": [
          12.3721324,
          51.3097201
        ]
      },
      "id": "node/1119052610"
    },
    {
      "type": "Feature",
      "properties": {
        "@id": "node/1130453657",
        "amenity": "casino",
        "name": "Osnabrücker Spieletreff"
      },
      "geometry": {
        "type": "Point",
        "coordinates": [
          8.0257595,
          52.2899508
        ]
      },
      "id": "node/1130453657"
    },
    {
      "type": "Feature",
      "properties": {
        "@id": "node/1130788257",
        "amenity": "casino",
        "name": "Diamond Casino",
        "opening_hours": "Mo-Th 08:00-02:00, Fr,Sa 08:00-03:00, Su 11:00-02:00"
      },
      "geometry": {
        "type": "Point",
        "coordinates": [
          8.0344658,
          52.2750035
        ]
      },
      "id": "node/1130788257"
    },
    {
      "type": "Feature",
      "properties": {
        "@id": "node/1131306088",
        "amenity": "casino",
        "name": "Spielhalle 17",
        "survey:date": "2020-09-03"
      },
      "geometry": {
        "type": "Point",
        "coordinates": [
          11.4085258,
          53.6288618
        ]
      },
      "id": "node/1131306088"
    },
    {
      "type": "Feature",
      "properties": {
        "@id": "node/1151734169",
        "amenity": "casino",
        "contact:email": "office@play7.at",
        "contact:phone": "+43 732 681684",
        "contact:website": "http://www.play7.at",
        "entrance": "yes",
        "name": "Play 7",
        "wheelchair": "limited",
        "wheelchair:description:de": "Stufe bei Eingang"
      },
      "geometry": {
        "type": "Point",
        "coordinates": [
          14.2788123,
          48.2786459
        ]
      },
      "id": "node/1151734169"
    },
    {
      "type": "Feature",
      "properties": {
        "@id": "node/1152664138",
        "amenity": "casino",
        "name": "Casino",
        "wheelchair": "no"
      },
      "geometry": {
        "type": "Point",
        "coordinates": [
          7.6131131,
          53.6450125
        ]
      },
      "id": "node/1152664138"
    },
    {
      "type": "Feature",
      "properties": {
        "@id": "node/1152788977",
        "amenity": "casino",
        "name": "Casini Novolino"
      },
      "geometry": {
        "type": "Point",
        "coordinates": [
          10.8934331,
          48.2870908
        ]
      },
      "id": "node/1152788977"
    },
    {
      "type": "Feature",
      "properties": {
        "@id": "node/1154363485",
        "amenity": "casino",
        "name": "Big Cash"
      },
      "geometry": {
        "type": "Point",
        "coordinates": [
          8.1774976,
          53.1408399
        ]
      },
      "id": "node/1154363485"
    },
    {
      "type": "Feature",
      "properties": {
        "@id": "node/1154992158",
        "amenity": "casino",
        "name": "Spiel-Station"
      },
      "geometry": {
        "type": "Point",
        "coordinates": [
          8.0712784,
          52.2615873
        ]
      },
      "id": "node/1154992158"
    },
    {
      "type": "Feature",
      "properties": {
        "@id": "node/1156501021",
        "amenity": "casino",
        "name": "Villegas"
      },
      "geometry": {
        "type": "Point",
        "coordinates": [
          -3.5826942,
          37.1210941
        ]
      },
      "id": "node/1156501021"
    },
    {
      "type": "Feature",
      "properties": {
        "@id": "node/1159101226",
        "amenity": "casino",
        "name": "Spielcafe"
      },
      "geometry": {
        "type": "Point",
        "coordinates": [
          12.0834755,
          54.1698779
        ]
      },
      "id": "node/1159101226"
    },
    {
      "type": "Feature",
      "properties": {
        "@id": "node/1181385143",
        "amenity": "casino",
        "contact:email": "info@hot-fun.by",
        "contact:phone": "+375 29 3441414",
        "contact:website": "http://hot-fun.by/",
        "leisure": "escape_game",
        "name": "Hot Fun",
        "opening_hours": "24/7"
      },
      "geometry": {
        "type": "Point",
        "coordinates": [
          27.4740354,
          53.9085942
        ]
      },
      "id": "node/1181385143"
    },
    {
      "type": "Feature",
      "properties": {
        "@id": "node/1184777119",
        "amenity": "casino",
        "name": "Hohenlimburger Playhaus",
        "wheelchair": "limited"
      },
      "geometry": {
        "type": "Point",
        "coordinates": [
          7.5690154,
          51.3506431
        ]
      },
      "id": "node/1184777119"
    },
    {
      "type": "Feature",
      "properties": {
        "@id": "node/1204180969",
        "amenity": "casino",
        "name": "LÖWENPLAY Casino",
        "opening_hours": "06:00-04:00"
      },
      "geometry": {
        "type": "Point",
        "coordinates": [
          7.3518858,
          49.2483662
        ]
      },
      "id": "node/1204180969"
    },
    {
      "type": "Feature",
      "properties": {
        "@id": "node/1209540866",
        "addr:city": "Bretten",
        "addr:country": "DE",
        "addr:housenumber": "25",
        "addr:postcode": "75015",
        "addr:street": "Pforzheimer Straße",
        "amenity": "casino",
        "leisure": "adult_gaming_centre",
        "name": "Casino Royal"
      },
      "geometry": {
        "type": "Point",
        "coordinates": [
          8.7068822,
          49.0355255
        ]
      },
      "id": "node/1209540866"
    },
    {
      "type": "Feature",
      "properties": {
        "@id": "node/1209817006",
        "addr:city": "Erlangen",
        "addr:country": "DE",
        "addr:housenumber": "33",
        "addr:postcode": "91052",
        "addr:street": "Nürnberger Straße",
        "amenity": "casino",
        "level": "0",
        "name": "Spielodrom",
        "opening_hours": "Mo-Fr 09:00-02:00; Sa 10:00-02:00; Su,PH 14:00-02:00"
      },
      "geometry": {
        "type": "Point",
        "coordinates": [
          11.0051604,
          49.5916405
        ]
      },
      "id": "node/1209817006"
    },
    {
      "type": "Feature",
      "properties": {
        "@id": "node/1213560735",
        "addr:city": "Erlangen",
        "addr:country": "DE",
        "addr:housenumber": "64",
        "addr:postcode": "91054",
        "addr:street": "Hauptstraße",
        "amenity": "casino",
        "name": "Barbarella",
        "phone": "+49 9131 4057041"
      },
      "geometry": {
        "type": "Point",
        "coordinates": [
          11.0030487,
          49.6001045
        ]
      },
      "id": "node/1213560735"
    },
    {
      "type": "Feature",
      "properties": {
        "@id": "node/1216273645",
        "amenity": "casino",
        "name": "Rincón de Pepe"
      },
      "geometry": {
        "type": "Point",
        "coordinates": [
          -1.1268987,
          37.9839022
        ]
      },
      "id": "node/1216273645"
    },
    {
      "type": "Feature",
      "properties": {
        "@id": "node/1219632277",
        "amenity": "casino"
      },
      "geometry": {
        "type": "Point",
        "coordinates": [
          12.1572565,
          54.0922233
        ]
      },
      "id": "node/1219632277"
    },
    {
      "type": "Feature",
      "properties": {
        "@id": "node/1222412847",
        "amenity": "casino",
        "fax": "+32 2 387 54 39",
        "name": "Circus Braine",
        "opening_hours": "Mo-Th 10:00-05:00; Fr 10:00-06:00; Sa 12:00-06:00; Su 12:00-05:00",
        "phone": "+32 2 387 54 38",
        "smoking": "yes",
        "website": "https://www.circus.be/",
        "wheelchair": "no"
      },
      "geometry": {
        "type": "Point",
        "coordinates": [
          4.4050498,
          50.6869628
        ]
      },
      "id": "node/1222412847"
    },
    {
      "type": "Feature",
      "properties": {
        "@id": "node/1233824991",
        "addr:city": "Wurzen",
        "addr:country": "DE",
        "addr:housenumber": "40",
        "addr:postcode": "04808",
        "addr:street": "Dresdener Straße",
        "amenity": "casino",
        "name": "Spiel-Casino Las Vegas"
      },
      "geometry": {
        "type": "Point",
        "coordinates": [
          12.7435229,
          51.3653982
        ]
      },
      "id": "node/1233824991"
    },
    {
      "type": "Feature",
      "properties": {
        "@id": "node/1234534796",
        "addr:city": "Puerto Iguazú",
        "addr:housenumber": "245",
        "addr:postcode": "3370",
        "addr:street": "Avenida Victoria Aguirre",
        "amenity": "casino",
        "name": "Casino Iguazú"
      },
      "geometry": {
        "type": "Point",
        "coordinates": [
          -54.5750913,
          -25.5990639
        ]
      },
      "id": "node/1234534796"
    },
    {
      "type": "Feature",
      "properties": {
        "@id": "node/1236422881",
        "addr:city": "La Falda",
        "amenity": "casino",
        "fixme": "Survey hours",
        "name": "Casino \"La Falda\"",
        "opening_hours": "11:00-07:00",
        "toilets": "yes"
      },
      "geometry": {
        "type": "Point",
        "coordinates": [
          -64.4872063,
          -31.0939728
        ]
      },
      "id": "node/1236422881"
    },
    {
      "type": "Feature",
      "properties": {
        "@id": "node/1236679247",
        "addr:housenumber": "27",
        "addr:street": "Boulevard Charles Quint",
        "amenity": "casino",
        "name": "Family Game Center"
      },